     3.02           OBSERVATION DATA    M (MIXED)           RINEX VERSION / TYPE
BINEX2RINEX  2.10   GSI, JAPAN          20230528 03:43:06UTCPGM / RUN BY / DATE
3019                                                        MARKER NAME
GEODETIC                                                    MARKER TYPE
GSI, JAPAN          GEOSPATIAL INFORMATION AUTHORITY OF JAPAOBSERVER / AGENCY
00000               TPS NETG5           5.2.6,08/May/2020   REC # / TYPE / VERS
                    TRM159900.00    GSI                     ANT # / TYPE
 -3941956.1858  3368145.4203  3702217.4723                  APPROX POSITION XYZ
        0.0000        0.0000        0.0000                  ANTENNA: DELTA H/E/N
G   20 C1C L1C D1C S1C C1W L1W D1W S1W C2X L2X D2X S2X C2W  SYS / # / OBS TYPES
       L2W D2W S2W C5X L5X D5X S5X                          SYS / # / OBS TYPES
R   16 C1C L1C D1C S1C C1P L1P D1P S1P C2C L2C D2C S2C C2P  SYS / # / OBS TYPES
       L2P D2P S2P                                          SYS / # / OBS TYPES
E   16 C1X L1X D1X S1X C5X L5X D5X S5X C7X L7X D7X S7X C8X  SYS / # / OBS TYPES
       L8X D8X S8X                                          SYS / # / OBS TYPES
J   12 C1C L1C D1C S1C C2X L2X D2X S2X C5X L5X D5X S5X      SYS / # / OBS TYPES
  2023     5    28     2     0    0.0000000     GPS         TIME OF FIRST OBS
G L1C  0.00000 10 G01 G02 G03 G07 G08 G14 G17 G21 G27 G30   SYS / PHASE SHIFT
G L1W -0.25000 10 G01 G02 G03 G07 G08 G14 G17 G21 G27 G30   SYS / PHASE SHIFT
G L2X  0.25000  8 G01 G03 G07 G08 G14 G17 G27 G30           SYS / PHASE SHIFT
G L2W  0.00000 10 G01 G02 G03 G07 G08 G14 G17 G21 G27 G30   SYS / PHASE SHIFT
G L5X  0.00000  6 G01 G03 G08 G14 G27 G30                   SYS / PHASE SHIFT
R L1C  0.00000 10 R02 R03 R04 R09 R10 R15 R16 R17 R18 R19   SYS / PHASE SHIFT
R L1P -0.25000 10 R02 R03 R04 R09 R10 R15 R16 R17 R18 R19   SYS / PHASE SHIFT
R L2C  0.00000  9 R02 R03 R04 R09 R15 R16 R17 R18 R19       SYS / PHASE SHIFT
R L2P -0.25000  9 R02 R03 R04 R09 R15 R16 R17 R18 R19       SYS / PHASE SHIFT
J L1C  0.00000  4 J02 J03 J04 J07                           SYS / PHASE SHIFT
J L2X  0.25000  4 J02 J03 J04 J07                           SYS / PHASE SHIFT
J L5X  0.00000  4 J02 J03 J04 J07                           SYS / PHASE SHIFT
E L1X  0.00000  8 E10 E12 E14 E21 E24 E26 E31 E33           SYS / PHASE SHIFT
E L5X  0.00000  8 E10 E12 E14 E21 E24 E26 E31 E33           SYS / PHASE SHIFT
E L7X  0.00000  8 E10 E12 E14 E21 E24 E26 E31 E33           SYS / PHASE SHIFT
E L8X  0.00000  8 E10 E12 E14 E21 E24 E26 E31 E33           SYS / PHASE SHIFT
 10 R02 -4 R03  5 R04  6 R09 -2 R10 -7 R15  0 R16 -1 R17  4 GLONASS SLOT / FRQ #
    R18 -3 R19  3                                           GLONASS SLOT / FRQ #
                                                            GLONASS COD/PHS/BIS
    30.000                                                  INTERVAL
    18                                                      LEAP SECONDS
smtt off - ms jumps in time tag (smooth phase and range)    COMMENT
                                                            END OF HEADER
> 2023 05 28 02 00  0.0000000  0 27
R02  23335125.522   124520726.388 6       378.254          41.400    23335127.673   124520726.380 6       378.254          41.100    23335127.527    96849479.491 6       294.195          39.500    23335128.927    96849475.481 6       294.195          39.000
R19  20223513.955   108182191.246 6       669.855          39.800    20223516.396   108182191.242 6       669.855          39.000    20223511.952    84141725.457 8       521.000          48.700    20223512.116    84141719.458 8       521.000          48.100
R09  20858539.135   111383485.410 8      2489.387          49.800    20858541.579   111383485.403 8      2489.387          49.000    20858537.484    86631606.151 8      1936.191          48.900    20858538.179    86631604.153 8      1936.191          48.200
J02  37505942.173   197095093.393 7       772.359          46.600    37505944.285   153580610.214 8       601.840          49.300    37505953.199   147181463.951 8       576.762          53.400
G27  24577589.939   129156006.439 5     -2512.676          34.900    24577589.9374  129156006.45242     -2512.6764         17.5004   24577598.205   100641026.248 6     -1957.926          38.300    24577599.8054  100641024.24042     -1957.9264         17.7004   24577607.284    96447672.396 6     -1876.348          40.800
G01  19871372.563   104424833.750 8       358.438          49.200    19871372.4594  104424833.75849       358.4384         54.0004   19871374.987    81370034.807 8       279.301          52.700    19871375.6984   81370047.80049       279.3014         54.2004   19871382.000    77979660.453 9       267.664          55.600
G02  22635821.274   118952093.279 7     -2374.082          44.900    22635820.6134  118952093.28245     -2374.0824         35.9004                                                                   22635819.9724   92689957.74445     -1849.9344         35.9004
G08  21926498.352   115224545.549 7     -1621.082          44.700    21926498.0644  115224545.54345     -1621.0824         35.3004   21926502.455    89785375.903 7     -1263.180          47.400    21926501.7644   89785377.89945     -1263.1804         35.2004   21926508.613    86044348.362 8     -1210.547          49.700
E14  20110303.501   105680302.801 6     -4033.746          39.700    20110317.391    78917127.853 7     -3012.211          43.500    20110314.247    80975826.292 7     -3090.793          43.400    20110315.733    79946482.949 7     -3051.504          43.600
G30  23055882.986   121159484.277 6     -1113.652          39.600    23055882.6324  121159484.27746     -1113.6524         38.4004   23055888.193    94410003.393 6      -867.781          41.500    23055888.3934   94410009.40246      -867.7814         37.6004   23055896.484    90476290.088 7      -831.621          45.900
G03  23086934.587   121322689.597 6      3662.656          39.600    23086934.8134  121322689.59746      3662.6564         38.9004   23086941.559    94537192.852 7      2854.016          42.800    23086941.1414   94537199.84446      2854.0164         38.9004   23086949.750    90598192.153 7      2735.098          45.900
G21  20938611.486   110033213.682 7     -1792.672          47.000    20938610.6594  110033213.68846     -1792.6724         41.6004                                                                   20938610.6564   85740188.17546     -1396.8874         41.7004
E12  26762852.960   140639762.952 5      2382.816          35.900    26762867.618   105023257.884 6      1779.379          40.200    26762864.186   107762982.363 6      1825.797          39.500    26762865.911   106393127.496 6      1802.586          40.000
R17  23438020.524   125421547.730 6     -2904.934          38.900    23438023.420   125421547.709 6     -2904.934          37.400    23438022.718    97550098.313 6     -2259.391          39.700    23438023.446    97550098.314 6     -2259.391          38.700
G07  22976282.269   120741144.821 6     -2327.523          40.000    22976282.3004  120741144.83546     -2327.5234         36.8004   22976286.941    94084016.401 6     -1813.656          39.400    22976286.9204   94084014.40346     -1813.6564         36.5004
R03  23076639.818   123531109.697 6      2952.930          41.800    23076642.179   123531109.690 6      2952.930          40.200    23076641.906    96079789.795 6      2296.723          40.500    23076641.980    96079783.789 6      2296.723          40.200
E21  27571295.532   144888040.279 5     -2776.473          33.900    27571317.060   108195626.833 6     -2073.340          38.700    27571313.979   111018112.927 6     -2127.426          39.200    27571315.389   109606875.256 6     -2100.383          39.000
G14  22161595.041   116460010.607 7      2880.188          43.700    22161594.8114  116460010.62245      2880.1884         33.7004   22161596.259    90748080.296 7      2244.301          45.600    22161596.5524   90748082.30145      2244.3014         33.6004   22161608.690    86966962.593 8      2150.789          49.500
E31  24228685.963   127322669.757 7      1462.066          46.800    24228698.859    95078693.953 8      1091.805          51.100    24228696.176    97558998.507 8      1120.285          50.600    24228697.506    96318849.107 8      1106.043          51.000
R16  19724835.642   105366574.332 8     -1861.746          53.300    19724838.757   105366574.330 8     -1861.746          52.600    19724835.837    81951796.461 8     -1448.023          50.800    19724836.383    81951800.463 8     -1448.023          50.800
R15  22898418.341   122362153.954 6     -4299.656          40.500    22898421.916   122362153.969 6     -4299.656          40.100    22898423.821    95170565.189 7     -3344.176          42.200    22898424.077    95170559.192 7     -3344.176          42.200
E33  23567495.803   123848092.603 7       470.770          46.700    23567506.374    92484042.899 8       351.547          52.300    23567503.890    94896657.645 8       360.719          52.800    23567505.132    93690355.644 8       356.133          52.500
R18  20421613.347   109012018.229 8     -1717.930          50.900    20421616.326   109012018.222 8     -1717.930          50.000    20421613.243    84787144.433 8     -1336.168          49.500    20421614.029    84787158.429 8     -1336.168          49.800
E26  24509278.065   128797173.900 7     -1709.602          45.600    24509288.477    96179772.509 8     -1276.652          49.100    24509286.240    98688796.277 8     -1309.957          50.600    24509287.295    97434289.768 8     -1293.305          49.900
J04  36900199.693   193911868.998 6       373.324          37.800    36900205.346   151100179.858 6       290.902          38.600    36900215.335   144804381.069 7       278.781          43.000
J07  37297299.151   195998628.618 6       137.816          38.300    37297301.402   152726213.573 7       107.391          45.000    37297311.211   146362660.279 8       102.914          50.100
J03  38442572.177   202017068.452 8      -464.348          48.800    38442573.961   157415896.515 8      -361.828          50.000    38442583.106   150856936.393 8      -346.754          53.500
> 2023 05 28 02 00 30.0000000  0 27
R02  23333064.135   124509726.113 6       355.098          41.600    23333065.869   124509726.101 6       355.098          40.200    23333066.755    96840923.764 6       276.188          40.500    23333066.749    96840919.772 6       276.188          40.400
R19  20219791.335   108162274.632 6       658.137          39.700    20219792.904   108162274.634 6       658.137          38.800    20219788.801    84126234.784 8       511.883          48.200    20219789.094    84126228.782 8       511.883          48.200
R09  20844614.574   111309130.070 8      2467.617          49.400    20844616.985   111309130.071 8      2467.617          48.500    20844613.338    86573774.235 8      1919.258          49.000    20844613.849    86573772.241 8      1919.258          48.500
J02  37501536.517   197071942.180 7       771.078          46.500    37501539.057   153562570.293 8       600.840          49.400    37501547.688   147164175.689 8       575.805          53.100
G27  24591937.431   129231400.143 5     -2513.820          34.200    24591937.6424  129231400.15342     -2513.8204         17.3004   24591945.150   100699774.322 6     -1958.820          38.100    24591944.6294  100699772.31242     -1958.8204         17.4004   24591953.834    96503972.635 6     -1877.203          39.600
G01  19869375.582   104414340.107 8       341.262          48.400    19869375.6294  104414340.10749       341.2624         54.3004   19869378.336    81361857.960 8       265.918          52.700    19869378.7414   81361870.95349       265.9184         54.1004   19869385.135    77971824.317 9       254.840          55.700
G02  22649385.027   119023370.412 7     -2377.652          45.000    22649383.7664  119023370.41245     -2377.6524         35.8004                                                                   22649383.1554   92745498.32845     -1852.7154         35.7004
G08  21935769.348   115273265.118 7     -1626.762          44.600    21935768.8794  115273265.11745     -1626.7624         35.5004   21935772.982    89823339.170 7     -1267.605          47.300    21935772.6904   89823341.16545     -1267.6054         35.3004   21935779.846    86080729.811 8     -1214.789          50.100
E14  20133400.872   105801679.052 6     -4057.914          39.500    20133414.300    79007765.758 7     -3030.258          43.500    20133411.842    81068828.700 7     -3109.309          43.900    20133413.027    80038303.102 7     -3069.785          43.500
G30  23062283.832   121193119.225 6     -1128.566          40.500    23062282.9184  121193119.23446     -1128.5664         37.4004   23062289.049    94436212.368 6      -879.402          41.700    23062288.8244   94436218.36846      -879.4024         37.4004   23062297.302    90501406.981 7      -842.762          45.700
G03  23066040.019   121212890.482 6      3657.184          38.900    23066040.3614  121212890.48346      3657.1844         38.4004   23066046.633    94451635.252 7      2849.754          42.500    23066046.2254   94451642.24146      2849.7544         38.2004   23066055.343    90516199.477 7      2731.012          45.500
G21  20948869.713   110087120.478 7     -1801.059          47.900    20948868.9574  110087120.48346     -1801.0594         41.1004                                                                   20948868.6394   85782193.44746     -1403.4224         40.9004
E12  26749267.075   140568363.876 5      2376.836          35.900    26749281.238   104969940.565 6      1774.910          40.200    26749277.806   107708274.139 6      1821.211          40.300    26749279.269   106339114.726 6      1798.062          40.300
R17  23454299.007   125508658.085 5     -2902.016          35.600    23454302.396   125508658.090 5     -2902.016          35.300    23454302.032    97617850.738 6     -2257.121          38.500    23454301.822    97617850.731 6     -2257.121          38.000
G07  22989593.149   120811093.650 6     -2335.445          40.000    22989593.0364  120811093.64746     -2335.4454         36.6004   22989597.894    94138521.810 6     -1819.828          38.900    22989597.2264   94138519.79646     -1819.8284         36.7004
R03  23060122.444   123442693.279 6      2941.504          41.000    23060125.329   123442693.280 6      2941.504          40.300    23060125.083    96011021.654 6      2287.836          40.600    23060125.215    96011015.661 6      2287.836          40.800
E21  27587159.499   144971390.857 5     -2780.074          34.600    27587178.496   108257868.998 6     -2076.031          38.700    27587175.138   111081978.822 6     -2130.188          39.100    27587176.714   109669929.282 6     -2103.109          38.900
G14  22145181.677   116373757.197 7      2870.113          44.300    22145181.3484  116373757.20745      2870.1134         33.9004   22145182.818    90680869.897 7      2236.453          45.800    22145182.9764   90680871.88945      2236.4534         33.9004   22145195.225    86902552.631 8      2143.266          49.100
E31  24220369.765   127278966.074 7      1451.590          46.900    24220382.283    95046058.089 8      1083.980          50.700    24220379.657    97525511.273 8      1112.258          51.400    24220381.029    96285787.555 8      1098.117          50.900
R16  19735360.952   105422796.405 8     -1886.254          53.100    19735363.716   105422796.405 8     -1886.254          52.300    19735361.293    81995524.680 8     -1467.086          51.000    19735361.387    81995528.685 8     -1467.086          50.500
R15  22922571.009   122491215.264 6     -4304.176          39.600    22922574.016   122491215.268 6     -4304.176          38.500    22922576.213    95270945.964 7     -3347.691          42.100    22922576.087    95270939.966 6     -3347.691          41.900
E33  23564835.008   123834110.535 7       461.508          46.400    23564845.651    92473601.765 8       344.633          52.800    23564843.234    94885944.132 8       353.625          52.700    23564844.424    93679778.324 8       349.129          53.000
R18  20431283.891   109063642.712 8     -1723.652          50.500    20431287.059   109063642.712 8     -1723.652          49.600    20431284.166    84827296.805 8     -1340.617          49.200    20431284.790    84827310.802 8     -1340.617          49.300
E26  24519050.649   128848527.329 7     -1713.898          46.100    24519060.901    96218120.819 8     -1279.859          48.600    24519058.441    98728144.979 8     -1313.246          50.300    24519059.672    97473138.274 8     -1296.555          49.100
J04  36898071.051   193900681.832 6       372.402          37.700    36898076.363   151091462.660 6       290.184          37.700    36898086.397   144796027.090 7       278.094          43.100
J07  37296512.660   195994498.145 6       137.688          38.300    37296515.512   152722995.016 7       107.289          45.000    37296525.151   146359575.817 8       102.816          50.300
J03  38445219.629   202030981.707 7      -463.051          45.800    38445221.428   157426738.015 8      -360.816          49.600    38445230.761   150867326.168 8      -345.785          53.700
> 2023 05 28 02 01  0.0000000  0 27
R02  23331131.631   124499416.902 6       332.078          40.400    23331134.271   124499416.907 6       332.078          40.200    23331134.008    96832905.597 6       258.285          40.100    23331134.816    96832901.594 6       258.285          39.900
R19  20216131.467   108142700.709 6       646.820          40.100    20216133.791   108142700.710 6       646.820          38.800    20216129.589    84111010.644 8       503.082          48.100    20216129.673    84111004.639 7       503.082          47.800
R09  20830812.489   111235427.764 8      2445.852          49.400    20830814.921   111235427.758 8      2445.852          48.300    20830811.185    86516450.251 8      1902.328          49.100    20830811.737    86516448.257 8      1902.328          48.500
J02  37497137.592   197048824.967 7       770.062          46.800    37497140.176   153544556.866 8       600.051          49.200    37497148.695   147146912.818 8       575.047          52.700
G27  24606293.654   129306841.144 5     -2515.492          33.900    24606292.9254  129306841.14742     -2515.4924         16.4004   24606302.612   100758559.323 6     -1960.125          38.700    24606301.7934  100758557.31242     -1960.1254         16.5004   24606309.926    96560308.178 6     -1878.453          40.400
G01  19867476.834   104404361.733 8       324.027          49.200    19867476.8674  104404361.73249       324.0274         54.0004   19867479.542    81354082.618 8       252.488          52.300    19867479.8034   81354095.61548       252.4884         53.8004   19867486.342    77964372.949 9       241.969          55.300
G02  22662968.244   119094750.677 7     -2380.953          44.900    22662967.1824  119094750.67745     -2380.9534         35.6004                                                                   22662966.5004   92801119.26945     -1855.2894         35.5004
G08  21945070.502   115322144.101 7     -1631.797          43.700    21945070.2534  115322144.09645     -1631.7974         35.2004   21945074.933    89861426.633 7     -1271.531          47.500    21945074.1394   89861428.63145     -1271.5314         34.9004   21945081.107    86117230.292 8     -1218.551          49.700
E14  20156634.748   105923773.723 6     -4081.844          39.500    20156648.549    79098940.144 7     -3048.129          44.000    20156645.737    81162381.569 7     -3127.648          44.000    20156647.188    80130666.729 7     -3087.891          43.800
G30  23068766.869   121227191.673 6     -1143.020          39.800    23068766.3484  121227191.68746     -1143.0204         37.7004   23068772.885    94462762.229 6      -890.664          41.900    23068773.0274   94462768.22246      -890.6644         37.4004   23068780.858    90526850.593 7      -853.551          45.800
G03  23045177.932   121103256.886 6      3651.656          40.200    23045177.7554  121103256.88746      3651.6564         39.2004   23045184.013    94366206.585 6      2845.445          41.700    23045183.9434   94366213.58946      2845.4454         39.0004   23045193.062    90434330.385 7      2726.887          46.200
G21  20959175.186   110141276.128 7     -1809.266          47.900    20959174.3074  110141276.13346     -1809.2664         41.1004                                                                   20959174.1614   85824392.64146     -1409.8164         41.0004
E12  26735712.179   140497141.104 5      2371.586          33.900    26735727.248   104916754.897 6      1770.988          40.300    26735724.399   107653701.011 6      1817.191          40.800    26735725.950   106285235.327 6      1794.090          40.600
R17  23470561.557   125595677.398 6     -2899.102          37.300    23470564.209   125595677.399 6     -2899.102          36.000    23470564.150    97685532.302 6     -2254.855          39.100    23470563.797    97685532.308 6     -2254.855          38.700
G07  23002948.508   120881276.332 6     -2343.238          39.000    23002948.2224  120881276.33246     -2343.2384         36.9004   23002953.037    94193209.362 6     -1825.902          39.900    23002953.2744   94193207.36546     -1825.9024         36.5004
R03  23043669.786   123354622.743 6      2929.953          41.200    23043672.907   123354622.739 6      2929.953          40.600    23043672.504    95942522.546 6      2278.852          40.900    23043673.055    95942516.542 6      2278.852          40.400
E21  27603038.150   145054842.463 5     -2783.453          34.400    27603058.523   108320186.588 6     -2078.551          37.900    27603056.010   111145922.120 6     -2132.777          39.100    27603057.129   109733059.727 6     -2105.664          38.500
G14  22128824.435   116287799.617 7      2860.430          42.900    22128824.5694  116287799.61945      2860.4304         33.7004   22128825.792    90613889.992 7      2228.906          45.800    22128825.4804   90613891.99145      2228.9064         33.5004   22128837.993    86838363.566 8      2136.035          49.200
E31  24212112.523   127235573.025 7      1441.238          47.000    24212124.819    95013654.181 8      1076.250          50.900    24212122.321    97492262.052 8      1104.328          50.600    24212123.570    96252960.992 8      1090.289          51.200
R16  19746022.727   105479749.363 8     -1910.574          52.700    19746025.485   105479749.361 8     -1910.574          52.300    19746022.551    82039821.371 8     -1486.004          50.800    19746023.223    82039825.367 8     -1486.004          50.400
R15  22946749.203   122620412.171 6     -4308.859          41.500    22946751.886   122620412.172 6     -4308.859          41.000    22946753.931    95371432.237 7     -3351.332          42.100    22946754.259    95371426.238 7     -3351.332          42.300
E33  23562226.603   123820402.243 7       452.418          46.600    23562237.055    92463365.072 8       337.844          52.600    23562234.568    94875440.395 8       346.656          53.100    23562235.821    93669408.105 8       342.250          52.700
R18  20440987.176   109115435.849 8     -1729.176          50.800    20440989.629   109115435.840 8     -1729.176          50.200    20440986.870    84867580.330 8     -1344.914          49.500    20440987.550    84867594.322 8     -1344.914          49.500
E26  24528846.851   128900006.437 7     -1718.023          45.800    24528857.037    96256562.981 8     -1282.941          49.200    24528854.815    98767589.985 8     -1316.406          50.100    24528855.907    97512081.857 8     -1299.676          49.700
J04  36895946.402   193889516.381 6       371.703          37.900    36895950.373   151082762.337 6       289.641          36.800    36895961.690   144787689.295 7       277.570          43.300
J07  37295726.080   195990365.065 6       137.973          38.400    37295729.118   152719774.424 7       107.512          45.300    37295738.685   146356489.417 8       103.031          50.300
J03  38447859.130   202044852.424 7      -461.598          47.400    38447860.813   157437546.378 8      -359.688          49.300    38447870.279   150877684.174 8      -344.699          53.800
> 2023 05 28 02 01 30.0000000  0 27
R02  23329329.953   124489800.573 6       308.941          41.300    23329331.735   124489800.568 6       308.941          40.200    23329331.539    96825426.295 6       240.289          37.700    23329332.084    96825422.296 6       240.289          38.000
R19  20212536.332   108123468.902 6       635.402          39.600    20212538.630   108123468.901 6       635.402          38.800    20212534.491    84096052.583 8       494.199          48.200    20212534.604    84096046.583 8       494.199          48.500
R09  20817133.105   111162381.918 8      2423.797          49.000    20817135.756   111162381.918 8      2423.797          48.300    20817132.340    86459636.844 8      1885.176          48.500    20817132.491    86459634.846 8      1885.176          48.200
J02  37492744.857   197025742.891 7       768.770          47.300    37492747.733   153526570.815 8       599.039          49.400    37492756.233   147129676.181 8       574.078          53.000
G27  24620659.032   129382330.205 5     -2517.133          33.600    24620658.8464  129382330.22242     -2517.1334         16.3004   24620666.722   100817381.736 6     -1961.402          37.400    24620667.6764  100817379.73642     -1961.4024         16.3004   24620675.349    96616679.622 6     -1879.676          39.500
G01  19865675.869   104394898.494 8       306.824          48.600    19865675.9954  104394898.49348       306.8244         53.9004   19865678.784    81346708.676 8       239.082          52.600    19865679.0904   81346721.67248       239.0824         53.8004   19865685.545    77957306.260 9       229.121          55.900
G02  22676570.947   119166233.146 7     -2384.504          45.200    22676570.1524  119166233.14445     -2384.5044         35.2004                                                                   22676569.1834   92856819.85045     -1858.0554         35.1004
G08  21954403.167   115371184.103 7     -1637.391          45.600    21954402.7324  115371184.09545     -1637.3914         35.9004   21954406.869    89899639.567 7     -1275.891          47.600    21954406.4234   89899641.56445     -1275.8914         35.7004   21954413.157    86153851.011 8     -1222.727          50.000
E14  20180005.092   106046583.439 6     -4105.469          39.600    20180018.800    79190648.489 7     -3065.773          43.100    20180015.805    81256482.336 7     -3145.750          43.500    20180017.232    80223571.284 7     -3105.762          44.000
G30  23075334.106   121261700.382 6     -1157.672          39.000    23075333.5534  121261700.38346     -1157.6724         37.0004   23075339.548    94489652.010 6      -902.082          41.100    23075339.9054   94489658.01146      -902.0824         36.9004   23075347.750    90552619.927 7      -864.496          46.100
G03  23024347.184   120993792.787 6      3645.988          40.500    23024347.4694  120993792.78246      3645.9884         38.8004   23024353.541    94280910.036 7      2841.031          42.100    23024353.2664   94280917.02846      2841.0314         38.8004   23024362.463    90352587.884 7      2722.656          46.200
G21  20969527.775   110195679.514 7     -1817.574          47.100    20969526.9744  110195679.52046     -1817.5744         41.3004                                                                   20969526.9284   85866784.87046     -1416.2934         41.2004
E12  26722192.687   140426096.071 5      2365.148          34.300    26722206.918   104863701.976 6      1766.184          39.600    26722204.843   107599264.071 6      1812.258          40.800    26722206.050   106231490.399 6      1789.219          40.100
R17  23486804.926   125682606.857 5     -2896.332          35.300    23486808.921   125682606.856 5     -2896.332          34.100    23486808.280    97753143.241 6     -2252.703          38.200    23486808.735    97753143.738 6     -2252.703          38.800
G07  23016347.719   120951690.583 6     -2351.160          39.700    23016348.0694  120951690.59146     -2351.1604         38.3004   23016353.335    94248077.424 6     -1832.070          40.100    23016353.0324   94248075.41546     -1832.0704         38.1004
R03  23027282.750   123266903.092 6      2918.031          41.300    23027285.733   123266903.103 6      2918.031          40.600    23027285.803    95874296.340 6      2269.578          41.500    23027285.971    95874290.335 6      2269.578          41.100
E21  27618937.057   145138394.591 5     -2786.641          34.200    27618957.988   108382579.256 6     -2080.934          38.200    27618955.852   111209942.418 6     -2135.219          39.800    27618956.753   109796266.214 6     -2108.078          39.000
G14  22112524.392   116202141.364 7      2850.223          44.100    22112524.4284  116202141.36845      2850.2234         34.3004   22112525.723    90547143.350 7      2220.953          46.500    22112525.5264   90547145.35045      2220.9534         34.2004   22112537.476    86774398.037 8      2128.414          48.900
E31  24203914.566   127192492.836 7      1430.773          47.000    24203927.003    94981483.913 8      1068.438          51.300    24203924.302    97459252.560 8      1096.309          51.400    24203925.682    96220371.112 8      1082.371          50.800
R16  19756820.875   105537431.496 8     -1934.922          52.700    19756823.597   105537431.496 8     -1934.922          52.300    19756821.117    82084685.187 8     -1504.941          50.700    19756821.514    82084689.197 8     -1504.941          51.000
R15  22970951.207   122749741.924 7     -4313.250          42.100    22970954.466   122749741.917 6     -4313.250          41.500    22970956.460    95472021.840 7     -3354.750          42.100    22970956.645    95472015.842 7     -3354.750          42.200
E33  23559669.931   123806967.781 7       443.188          46.300    23559680.508    92453332.863 8       330.949          52.500    23559678.034    94865146.473 8       339.586          53.400    23559679.259    93659245.043 8       335.266          52.700
R18  20450720.911   109167396.461 8     -1734.879          51.100    20450723.811   109167396.460 8     -1734.879          50.300    20450720.956    84907994.102 8     -1349.348          50.000    20450721.601    84908008.103 8     -1349.348          49.300
E26  24538666.230   128951610.788 7     -1722.301          45.600    24538677.049    96295098.674 8     -1286.133          49.500    24538674.583    98807130.957 8     -1319.684          50.200    24538675.778    97551120.188 8     -1302.910          49.300
J04  36893826.358   193878373.719 6       370.938          39.100    36893829.834   151074079.765 6       289.043          36.900    36893841.423   144779368.522 7       277.000          43.900
J07  37294939.497   195986230.314 6       137.789          37.900    37294942.335   152716552.529 7       107.367          45.100    37294951.884   146353401.767 8       102.895          49.900
J03  38450490.647   202058681.200 7      -460.344          47.700    38450492.303   157448322.046 8      -358.711          50.000    38450501.707   150888010.864 8      -343.762          53.500
> 2023 05 28 02 02  0.0000000  0 27
R02  23327657.875   124480881.276 6       285.598          39.900    23327660.181   124480881.266 6       285.598          39.400    23327660.533    96818489.102 6       222.133          39.400    23327660.412    96818485.110 6       222.133          39.200
R19  20209004.992   108104580.535 6       623.953          39.600    20209007.619   108104580.527 6       623.953          38.800    20209003.281    84081361.643 8       485.297          48.300    20209003.676    84081355.645 7       485.297          47.800
R09  20803578.151   111089998.793 8      2401.637          49.500    20803580.795   111089998.792 8      2401.637          49.100    20803576.872    86403338.877 8      1867.941          49.100    20803577.231    86403336.885 8      1867.941          48.200
J02  37488359.998   197002699.141 7       767.410          46.700    37488362.630   153508614.631 8       597.980          49.500    37488371.217   147112468.170 8       573.066          53.300
G27  24635033.527   129457870.192 5     -2519.172          35.100    24635033.0874  129457870.19542     -2519.1724         17.4004   24635042.155   100876243.881 6     -1962.992          38.100    24635042.4424  100876241.86942     -1962.9924         17.5004   24635050.950    96673089.145 6     -1881.199          40.500
G01  19863973.578   104385952.247 8       289.562          48.900    19863973.5944  104385952.24448       289.5624         53.9004   19863976.358    81339737.586 8       225.633          52.300    19863976.6714   81339750.58249       225.6334         54.1004   19863983.072    77950625.636 9       216.230          55.100
G02  22690193.313   119237818.853 7     -2388.074          45.600    22690192.3614  119237818.85845     -2388.0744         35.6004                                                                   22690191.7464   92912600.88845     -1860.8364         35.6004
G08  21963766.343   115420387.464 7     -1642.918          44.500    21963766.0474  115420387.45345     -1642.9184         35.7004   21963769.558    89937979.802 7     -1280.195          47.000    21963769.2214   89937981.79745     -1280.1954         35.6004   21963776.098    86190593.725 8     -1226.855          49.500
E14  20203510.554   106170106.883 6     -4129.445          38.600    20203524.783    79282889.828 7     -3083.676          43.200    20203521.723    81351129.987 7     -3164.121          43.900    20203523.242    80317015.779 7     -3123.898          43.800
G30  23081984.069   121296645.975 6     -1172.266          39.200    23081983.5544  121296645.96946     -1172.2664         37.0004   23081990.186    94516882.238 6      -913.453          41.900    23081990.1464   94516888.23046      -913.4534         36.9004   23081997.699    90578715.512 7      -875.395          45.800
G03  23003550.237   120884504.235 6      3639.949          41.200    23003550.8784  120884504.22746      3639.9494         39.3004   23003557.014    94195750.244 7      2836.324          42.200    23003556.4084   94195757.23446      2836.3244         39.0004   23003565.463    90270976.447 7      2718.145          46.800
G21  20979927.574   110250330.580 7     -1825.957          47.400    20979926.8554  110250330.58646     -1825.9574         41.4004                                                                   20979926.4784   85909370.10646     -1422.8244         41.3004
E12  26708707.676   140355231.813 5      2358.746          35.300    26708722.134   104810784.041 6      1761.402          39.900    26708720.220   107544965.645 6      1807.352          41.100    26708721.190   106177882.215 6      1784.375          40.500
R17  23503034.461   125769446.282 6     -2893.137          38.500    23503037.586   125769446.284 6     -2893.137          37.600    23503036.764    97820684.878 6     -2250.219          37.200    23503036.860    97820685.862 6     -2250.219          37.300
G07  23029791.406   121022336.344 6     -2358.637          40.500    23029791.6854  121022336.34246     -2358.6374         37.4004   23029796.594    94303125.874 6     -1837.898          39.300    23029796.2464   94303123.86646     -1837.8984         37.3004
R03  23010962.805   123179542.204 6      2905.906          41.200    23010965.634   123179542.213 6      2905.906          40.600    23010965.882    95806349.181 6      2260.148          41.100    23010966.096    95806343.162 6      2260.148          40.700
E21  27634857.805   145222048.942 5     -2790.410          34.700    27634877.731   108445048.233 6     -2083.750          38.900    27634874.188   111274041.033 6     -2138.105          39.700    27634875.949   109859550.012 6     -2110.930          39.200
G14  22096281.880   116116787.818 7      2839.914          43.800    22096281.9004  116116787.82345      2839.9144         34.4004   22096282.876    90480634.140 7      2212.922          46.200    22096283.1504   90480636.13545      2212.9224         34.0004   22096295.348    86710660.046 8      2120.715          49.400
E31  24195776.746   127149729.796 7      1420.066          46.400    24195789.406    94949550.474 8      1060.438          51.100    24195786.844    97426486.072 8      1088.102          51.000    24195788.139    96188021.146 8      1074.270          51.100
R16  19767755.698   105595842.993 8     -1959.262          53.400    19767758.451   105595842.988 8     -1959.262          52.000    19767755.971    82130116.294 8     -1523.871          50.900    19767756.153    82130120.299 8     -1523.871          51.100
R15  22995178.639   122879203.612 6     -4317.594          41.900    22995181.470   122879203.612 6     -4317.594          41.200    22995183.420    95572714.065 6     -3358.129          41.600    22995183.643    95572708.066 6     -3358.129          41.300
E33  23557165.982   123793809.215 7       433.887          46.100    23557176.503    92443506.678 8       324.008          52.500    23557173.956    94855063.952 8       332.457          53.400    23557175.190    93649290.688 8       328.234          52.500
R18  20460486.658   109219525.527 8     -1740.508          50.600    20460489.385   109219525.523 8     -1740.508          49.600    20460486.431    84948538.910 8     -1353.730          49.800    20460487.162    84948552.905 8     -1353.730          49.600
E26  24548510.826   129003341.807 7     -1726.559          45.400    24548521.295    96333728.950 8     -1289.312          48.700    24548518.845    98846768.988 8     -1322.949          49.700    24548519.951    97590254.345 8     -1306.133          49.600
J04  36891710.618   193867256.939 6       369.945          38.400    36891715.422   151065417.382 6       288.270          37.300    36891725.885   144771067.089 7       276.258          43.800
J07  37294153.206   195982096.627 6       137.613          37.700    37294155.427   152713331.458 7       107.230          44.900    37294165.251   146350314.912 8       102.762          50.100
J03  38453114.928   202072470.595 7      -459.074          47.800    38453116.475   157459067.029 8      -357.719          49.800    38453125.750   150898308.138 8      -342.816          53.000
> 2023 05 28 02 02 30.0000000  0 27
R02  23326117.963   124472659.720 6       262.594          41.000    23326119.293   124472659.719 6       262.594          40.200    23326119.715    96812094.604 6       204.242          39.300    23326120.498    96812090.611 6       204.242          39.400
R19  20205538.128   108086034.097 6       612.504          39.700    20205540.774   108086034.094 6       612.504          38.700    20205536.480    84066936.657 7       476.395          47.900    20205536.575    84066930.659 8       476.395          48.500
R09  20790147.996   111018281.746 8      2379.613          49.600    20790150.466   111018281.739 8      2379.613          48.800    20790146.683    86347558.965 8      1850.809          48.200    20790147.042    86347556.970 8      1850.809          48.000
J02  37483982.350   196979693.882 7       766.293          47.400    37483984.891   153490688.432 8       597.109          49.500    37483993.441   147095288.890 8       572.230          53.300
G27  24649419.065   129533460.990 5     -2520.320          35.300    24649418.9194  129533460.98442     -2520.3204         16.5004   24649426.643   100935145.568 6     -1963.887          37.100    24649427.3494  100935143.54642     -1963.8874         16.3004   24649435.910    96729536.519 6     -1882.059          41.300
G01  19862369.533   104377521.912 8       272.504          50.200    19862369.3504  104377521.91649       272.5044         54.4004   19862372.095    81333168.513 8       212.340          52.800    19862372.4014   81333181.50248       212.3404         53.8004   19862378.852    77944330.268 9       203.492          55.100
G02  22703834.760   119309505.921 7     -2391.086          45.000    22703833.9684  119309505.92045     -2391.0864         35.3004                                                                   22703832.9224   92968460.89845     -1863.1844         35.2004
G08  21973160.532   115469754.381 7     -1648.266          44.100    21973159.6224  115469754.37745     -1648.2664         35.4004   21973163.968    89976447.481 7     -1284.363          46.800    21973163.9454   89976449.47145     -1284.3634         35.0004   21973170.536    86227458.567 8     -1230.848          50.200
E14  20227151.520   106294339.659 6     -4152.715          38.800    20227165.722    79375660.856 7     -3101.055          43.400    20227162.640    81446321.150 7     -3181.949          43.500    20227164.172    80410996.875 7     -3141.500          43.500
G30  23088716.577   121332026.086 6     -1186.387          39.100    23088716.1004  121332026.09146     -1186.3874         37.7004   23088722.415    94544451.071 6      -924.457          41.800    23088722.6894   94544457.06446      -924.4574         37.5004   23088731.232    90605135.609 7      -885.938          46.200
G03  22982787.239   120775394.301 6      3634.078          40.300    22982787.1894  120775394.30846      3634.0784         38.7004   22982793.800    94110729.656 6      2831.750          41.800    22982793.2234   94110736.65746      2831.7504         38.5004   22982802.497    90189498.421 7      2713.762          46.300
G21  20990374.226   110305227.074 7     -1833.809          47.800    20990373.2134  110305227.07146     -1833.8094         41.1004                                                                   20990373.1194   85952146.58046     -1428.9414         41.1004
E12  26695255.730   140284548.487 5      2352.941          34.200    26695271.533   104758001.196 6      1757.066          39.600    26695269.258   107490805.838 6      1802.902          41.200    26695270.504   106124410.890 6      1779.984          40.500
R17  23519246.428   125856196.469 6     -2890.113          38.700    23519249.239   125856196.467 6     -2890.113          36.000    23519248.897    97888157.119 6     -2247.867          37.500    23519248.513    97888158.120 6     -2247.867          37.000
G07  23043278.890   121093210.121 6     -2366.242          39.300    23043278.3464  121093210.12046     -2366.2424         37.3004   23043283.388    94358351.965 6     -1843.824          39.500    23043283.6894   94358349.96046     -1843.8244         37.3004
R03  22994711.198   123092543.707 6      2893.867          41.400    22994713.312   123092543.714 6      2893.867          40.400    22994713.205    95738683.864 6      2250.785          40.700    22994713.755    95738677.867 6      2250.785          40.400
E21  27650795.347   145305804.070 5     -2793.438          34.200    27650815.640   108507592.448 6     -2086.008          38.900    27650812.531   111338216.872 6     -2140.426          39.600    27650814.221   109922910.036 6     -2113.219          39.200
G14  22080097.821   116031741.436 7      2829.832          44.100    22080098.3074  116031741.44545      2829.8324         34.5004   22080099.695    90414364.266 7      2205.066          46.800    22080099.5894   90414366.26145      2205.0664         34.3004   22080111.605    86647151.438 8      2113.188          49.800
E31  24187700.126   127107285.207 7      1409.594          46.900    24187712.536    94917854.836 8      1052.617          50.900    24187709.881    97393963.592 8      1080.078          51.600    24187711.218    96155912.090 8      1066.348          51.300
R16  19778826.196   105654981.251 8     -1983.211          51.800    19778829.182   105654981.247 8     -1983.211          52.000    19778826.684    82176112.658 8     -1542.496          51.200    19778827.026    82176116.656 8     -1542.496          50.700
R15  23019428.913   123008793.481 6     -4321.695          41.300    23019431.976   123008793.490 6     -4321.695          41.000    23019434.842    95673506.000 7     -3361.320          42.000    23019434.643    95673499.999 6     -3361.320          40.700
E33  23554714.070   123780925.675 7       424.980          46.000    23554724.829    92433885.869 8       317.355          52.100    23554722.341    94845192.161 8       325.633          52.600    23554723.567    93639544.389 8       321.492          53.100
R18  20470283.234   109271821.100 8     -1745.820          50.700    20470286.142   109271821.097 8     -1745.820          49.900    20470282.926    84989213.214 8     -1357.859          49.300    20470283.872    84989227.213 8     -1357.859          49.100
E26  24558378.715   129055198.099 7     -1730.438          45.600    24558388.971    96372452.783 8     -1292.207          48.700    24558386.775    98886503.007 8     -1325.918          49.700    24558387.860    97629483.272 8     -1309.062          49.500
J04  36889599.845   193856166.165 6       369.289          38.900    36889604.507   151056775.255 6       287.758          37.700    36889615.362   144762785.068 7       275.766          43.300
J07  37293366.777   195977963.997 6       137.676          38.100    37293369.044   152710111.223 7       107.277          44.500    37293378.861   146347228.844 8       102.809          49.900
J03  38455731.116   202086220.302 7      -457.578          47.600    38455733.029   157469781.090 8      -356.555          49.500    38455742.225   150908575.786 8      -341.699          53.700
> 2023 05 28 02 03  0.0000000  0 28
R02  23324707.600   124465135.692 6       239.102          41.900    23324709.686   124465135.691 6       239.102          40.400    23324709.592    96806242.658 6       185.969          39.900    23324710.502    96806238.656 6       185.969          39.500
R19  20202134.719   108067827.422 6       601.160          39.800    20202137.135   108067827.421 6       601.160          38.800    20202132.852    84052775.924 8       467.570          48.300    20202132.822    84052769.925 8       467.570          48.100
R09  20776842.982   110947232.674 8      2356.996          49.800    20776845.174   110947232.671 8      2356.996          49.000    20776841.631    86292298.607 8      1833.219          49.400    20776841.957    86292296.612 8      1833.219          48.600
J02  37479611.838   196956726.293 7       764.844          45.300    37479614.440   153472791.593 8       595.984          50.300    37479622.869   147078137.750 8       571.148          53.200
G27  24663812.307   129609101.548 5     -2522.230          35.000    24663811.6684  129609101.54142     -2522.2304         17.3004   24663820.355   100994086.076 6     -1965.375          37.100    24663820.5434  100994084.07642     -1965.3754         17.1004   24663830.332    96786021.130 6     -1883.484          41.100
G01  19860862.993   104369605.334 8       255.219          49.200    19860862.9494  104369605.33648       255.2194         53.9004   19860865.603    81326999.750 8       198.871          51.900    19860865.7874   81327012.74748       198.8714         53.7004   19860872.349    77938418.546 9       190.586          55.600
G02  22717495.325   119381291.475 7     -2394.566          45.300    22717494.5224  119381291.46845     -2394.5664         35.5004                                                                   22717492.8584   93024397.65545     -1865.8984         35.6004
G08  21982585.327   115519283.793 7     -1653.848          45.000    21982584.6834  115519283.79045     -1653.8484         35.1004   21982589.527    90015041.782 7     -1288.711          47.000    21982588.6614   90015043.76745     -1288.7114         34.8004   21982595.824    86264444.754 8     -1235.016          50.200
E14  20250926.056   106419276.521 6     -4176.496          37.700    20250940.272    79468957.664 7     -3118.812          42.800    20250937.384    81542051.816 7     -3200.172          43.500    20250938.796    80505510.616 7     -3159.492          43.300
G30  23095531.468   121367837.441 6     -1201.051          38.800    23095531.2444  121367837.44846     -1201.0514         37.7004   23095537.408    94572355.919 6      -935.887          41.900    23095537.7444   94572361.92146      -935.8874         37.6004   23095544.890    90631877.755 7      -896.891          44.900
G03  22962058.448   120666465.106 6      3627.836          40.500    22962058.7114  120666465.10646      3627.8364         39.1004   22962064.847    94025849.879 7      2826.887          42.100    22962064.7594   94025856.87746      2826.8874         39.0004   22962073.281    90108155.346 7      2709.098          46.500
G21  21000866.662   110360365.730 7     -1842.137          47.100    21000865.9774  110360365.73546     -1842.1374         41.4004                                                                   21000865.4614   85995111.75646     -1435.4304         40.8004
G17  24251136.962   127440584.426 6      2387.293          37.100    24251137.1024  127440584.41744      2387.2934         29.3004   24251140.984    99304359.334 5      1860.227          35.200    24251140.2614   99304363.32744      1860.2274         29.4004
E12  26681840.529   140214045.403 5      2346.887          34.300    26681854.750   104705352.931 6      1752.547          39.200    26681852.555   107436784.120 6      1798.266          40.400    26681853.774   106071075.897 6      1775.406          39.900
R17  23535440.122   125942855.461 6     -2887.281          36.400    23535442.917   125942855.461 6     -2887.281          36.200    23535443.230    97955558.422 5     -2245.664          35.100    23535441.848    97955559.438 5     -2245.664          34.800
G07  23056808.535   121164307.944 6     -2373.582          38.600    23056807.8494  121164307.94746     -2373.5824         36.2004   23056813.126    94413752.649 6     -1849.543          38.900    23056812.7514   94413750.65046     -1849.5434         36.2004
R03  22978526.785   123005911.110 6      2881.410          40.900    22978529.531   123005911.118 6      2881.410          40.000    22978529.335    95671303.142 6      2241.098          41.300    22978529.656    95671297.149 6      2241.098          41.400
E21  27666753.063   145389657.754 5     -2796.809          34.100    27666772.951   108570210.269 6     -2088.523          38.900    27666769.690   111402468.222 6     -2143.008          39.500    27666771.165   109986344.621 6     -2115.766          39.100
G14  22063973.145   115947003.728 7      2819.309          44.100    22063973.0414  115947003.73245      2819.3094         35.0004   22063974.456    90348334.916 7      2196.863          46.700    22063974.8394   90348336.91845      2196.8634         34.7004   22063986.175    86583873.318 8      2105.328          48.700
E31  24179683.412   127065159.288 7      1398.832          47.100    24179696.082    94886397.168 8      1044.582          50.600    24179693.578    97361685.290 8      1071.832          51.300    24179694.880    96124044.104 8      1058.207          51.300
R16  19790032.586   105714842.572 8     -2007.492          52.500    19790035.488   105714842.570 8     -2007.492          51.800    19790033.256    82222671.398 8     -1561.383          50.900    19790033.342    82222675.400 8     -1561.383          50.700
R15  23043703.261   123138506.619 6     -4325.961          40.000    23043706.329   123138506.623 6     -4325.961          39.400    23043709.159    95774393.780 6     -3364.637          40.900    23043708.892    95774387.765 6     -3364.637          40.500
E33  23552314.480   123768315.262 7       415.715          45.700    23552325.191    92424469.015 8       310.438          52.700    23552322.676    94835529.647 8       318.535          53.200    23552323.909    93630004.707 8       314.488          53.000
R18  20480110.541   109324280.176 8     -1751.441          50.300    20480113.493   109324280.175 8     -1751.441          50.200    20480110.516    85030014.689 8     -1362.230          49.100    20480111.112    85030028.687 8     -1362.230          48.900
E26  24568269.622   129107177.276 7     -1734.789          45.500    24568280.319    96411268.385 8     -1295.457          49.200    24568277.901    98926331.190 8     -1329.254          49.400    24568279.011    97668805.161 8     -1312.355          49.200
J04  36887494.279   193845100.597 6       368.215          38.100    36887498.876   151048152.771 6       286.922          38.100    36887509.405   144754521.859 7       274.965          43.200
J07  37292580.090   195973831.282 6       137.695          38.900    37292582.962   152706890.917 7       107.293          45.300    37292592.410   146344142.712 8       102.824          50.100
J03  38458340.079   202099928.975 7      -456.418          47.100    38458341.893   157480463.179 8      -355.652          50.100    38458350.809   150918812.789 8      -340.832          53.700
> 2023 05 28 02 03 30.0000000  0 28
R02  23323427.962   124458312.350 6       215.754          39.300    23323430.325   124458312.342 6       215.754          39.500    23323430.416    96800935.655 6       167.809          38.600    23323431.008    96800931.657 6       167.809          38.500
R19  20198794.700   108049960.733 6       590.000          39.600    20198796.952   108049960.728 6       590.000          38.600    20198792.754    84038879.631 8       458.891          48.000    20198793.013    84038873.633 8       458.891          48.400
R09  20763663.654   110876857.134 8      2334.633          49.700    20763666.158   110876857.133 8      2334.633          49.000    20763662.201    86237562.098 8      1815.824          49.000    20763662.940    86237560.101 8      1815.824          48.000
J02  37475248.725   196933798.711 7       763.617          45.900    37475251.257   153454925.929 8       595.027          49.200    37475259.912   147061016.484 8       570.234          53.000
G27  24678216.335   129684793.737 5     -2523.836          34.600    24678214.5744  129684793.73342     -2523.8364         17.3004   24678224.590   101053066.811 6     -1966.625          37.800    24678224.6564  101053064.80842     -1966.6254         17.3004   24678234.001    96842544.297 6     -1884.684          40.800
G01  19859454.617   104362203.570 8       238.145          49.400    19859454.4344  104362203.57349       238.1454         54.0004   19859456.823    81321232.146 8       185.566          52.100    19859457.2874   81321245.14348       185.5664         53.8004   19859463.774    77932891.265 9       177.836          55.900
G02  22731174.253   119453176.077 7     -2397.773          44.500    22731173.4104  119453176.08045     -2397.7734         35.2004                                                                   22731172.8984   93080411.60345     -1868.3954         35.2004
G08  21992042.080   115568977.815 7     -1659.176          44.300    21992041.7864  115568977.80845     -1659.1764         35.2004   21992045.502    90053764.336 7     -1292.867          46.900    21992045.3724   90053766.32745     -1292.8674         35.0004   21992052.297    86301553.861 8     -1238.996          50.100
E14  20274833.697   106544915.106 6     -4199.711          37.700    20274849.059    79562778.465 7     -3136.148          42.700    20274845.594    81638320.157 7     -3217.961          43.200    20274847.230    80600555.184 7     -3177.055          43.200
G30  23102429.162   121404079.880 6     -1215.270          40.100    23102427.8014  121404079.88146     -1215.2704         37.5004   23102435.065    94600596.655 7      -946.961          42.300    23102434.9094   94600602.66146      -946.9614         37.9004   23102441.919    90658941.791 7      -907.508          45.500
G03  22941365.153   120557721.804 6      3621.703          39.300    22941365.0214  120557721.81046      3621.7034         38.6004   22941371.799    93941114.980 7      2822.105          42.300    22941371.4844   93941121.97846      2822.1054         38.6004   22941380.080    90026951.088 7      2704.516          46.200
G21  21011404.966   110415746.602 7     -1850.020          47.200    21011404.2374  110415746.60246     -1850.0204         40.6004                                                                   21011404.1324   86038265.67046     -1441.5744         40.9004
G17  24237509.903   127368974.277 6      2386.766          37.100    24237509.9814  127368974.27045      2386.7664         30.7004   24237512.885    99248559.364 5      1859.816          35.300    24237512.9134   99248563.35045      1859.8164         31.0004
E12  26668459.418   140143724.962 5      2340.828          35.100    26668473.414   104652841.063 6      1748.020          39.300    26668470.742   107382902.353 6      1793.621          40.100    26668471.944   106017879.088 6      1770.820          39.600
R17  23551616.371   126029424.836 5     -2884.113          34.300    23551619.308   126029424.840 5     -2884.113          33.800    23551620.549    98022890.036 5     -2243.199          35.900    23551620.759    98022891.061 5     -2243.199          35.800
G07  23070380.145   121235628.718 6     -2380.812          38.800    23070380.1794  121235628.72146     -2380.8124         36.2004   23070385.319    94469327.065 6     -1855.180          38.800    23070385.3494   94469325.06146     -1855.1804         36.1004
R03  22962413.186   122919650.721 6      2869.078          41.900    22962415.386   122919650.724 6      2869.078          41.000    22962415.578    95604211.905 6      2231.508          41.500    22962415.801    95604205.916 6      2231.508          41.700
E21  27682729.471   145473610.742 5     -2800.043          33.800    27682748.730   108632902.224 6     -2090.941          38.900    27682745.768   111466795.650 6     -2145.488          39.400    27682747.300   110049854.313 6     -2118.215          38.900
G14  22047907.510   115862579.251 7      2808.887          44.000    22047907.3144  115862579.26645      2808.8874         34.7004   22047909.236    90282549.665 7      2188.742          46.400    22047908.8124   90282551.66145      2188.7424         34.7004   22047920.757    86520829.121 8      2097.547          49.000
E31  24171728.619   127023355.513 7      1387.992          46.600    24171741.195    94855180.065 8      1036.488          50.900    24171738.546    97329653.825 8      1063.527          51.500    24171739.886    96092419.822 8      1050.008          51.300
R16  19801373.801   105775426.071 8     -2031.438          52.100    19801376.843   105775426.074 8     -2031.438          52.000    19801374.569    82269791.838 8     -1580.008          51.600    19801374.724    82269795.841 8     -1580.008          50.800
R15  23068000.722   123268341.315 6     -4329.777          40.100    23068003.768   123268341.318 6     -4329.777          39.200    23068005.484    95875376.097 6     -3367.605          39.400    23068005.869    95875370.086 6     -3367.605          39.200
E33  23549966.865   123755979.179 7       406.625          46.600    23549977.780    92415257.013 8       303.648          52.600    23549975.244    94826077.336 8       311.570          53.600    23549976.518    93620672.549 8       307.609          52.700
R18  20489968.842   109376903.070 8     -1756.766          50.900    20489971.518   109376903.061 8     -1756.766          49.700    20489968.625    85070943.575 8     -1366.375          49.500    20489969.361    85070957.572 8     -1366.375          49.100
